[
  {
    "shopName": "BESPOKE CANARY WHARF",
    "priority": 1,
    "website": "bespokecycling.com",
    "address": "Crossrail Pl",
    "suburb": "",
    "city": "London",
    "zone": "E14 5AR",
    "country": "United Kingdom",
    "_geoloc": {
      "lat": 51.5060677,
      "lng": -0.0184396
    }
  },
  {
    "shopName": "BESPOKE GRESHAM ST",
    "priority": 1,
    "website": "bespokecycling.com",
    "address": "30 Gresham St",
    "suburb": "",
    "city": "London",
    "zone": "EC2V 7PG",
    "country": "United Kingdom",
    "_geoloc": {
      "lat": 51.5146578,
      "lng": -0.0958647
    }
  },
  {
    "shopName": "BESPOKE JERMYN ST",
    "priority": 1,
    "website": "bespokecycling.com",
    "address": "59 Jermyn St",
    "suburb": "St. James's",
    "city": "London",
    "zone": "SW1Y 6LX",
    "country": "United Kingdom",
    "_geoloc": {
      "lat": 51.507751,
      "lng": -0.1406013
    }
  },
  {
    "shopName": "GIRO",
    "priority": 0,
    "website": "girocycles.com",
    "address": "2 High St",
    "suburb": "Esher",
    "city": "London",
    "zone": "KT10 9RT",
    "country": "United Kingdom",
    "_geoloc": {
      "lat": 51.3711607,
      "lng": -0.3654069
    }
  },
  {
    "shopName": "BIKE TREKS",
    "priority": 0,
    "website": "bike-treks.co.uk",
    "address": "Rydal Rd",
    "suburb": "",
    "city": "Ambleside",
    "zone": "LA22 9AN",
    "country": "United Kingdom",
    "_geoloc": {
      "lat": 54.4066643,
      "lng": -2.9432693
    }
  },
  {
    "shopName": "PEDAL POWER",
    "priority": 0,
    "website": "pedalpower.org.uk",
    "address": "13 Main St",
    "suburb": "West Calder",
    "city": "",
    "zone": "EH55 8BY",
    "country": "United Kingdom",
    "_geoloc": {
      "lat": 55.8512996,
      "lng": -3.5743922
    }
  },
  {
    "shopName": "700",
    "priority": 0,
    "website": "7hundred.co.uk",
    "address": "68 Peascod Street",
    "suburb": "Windsor",
    "city": "",
    "zone": "SL4 1DE",
    "country": "United Kingdom",
    "_geoloc": {
      "lat": 51.4802152,
      "lng": -0.6141481
    }
  },
  {
    "shopName": "CYCLE MODE",
    "priority": 0,
    "website": "cyclemode.co.uk",
    "address": "37 Bethlehem St",
    "suburb": "Grimsby",
    "city": "",
    "zone": "DN31 1JQ",
    "country": "United Kingdom",
    "_geoloc": {
      "lat": 53.5642933,
      "lng": -0.0890323
    }
  },
  {
    "shopName": "PROLOGUE",
    "priority": 0,
    "website": "prologuecycling.co.uk",
    "address": "Wellington House, Cold Bath Rd",
    "suburb": "Harrogate",
    "city": "",
    "zone": "HG2 0NA",
    "country": "United Kingdom",
    "_geoloc": {
      "lat": 53.9915451,
      "lng": -1.5490967
    }
  },
  {
    "shopName": "CYCLEBOX",
    "priority": 0,
    "website": "cyclebox.fr",
    "address": "5 Rue du Moulin",
    "suburb": "Chantepie",
    "city": "",
    "zone": "35135",
    "country": "France",
    "_geoloc": {
      "lat": 48.0890699,
      "lng": -1.6298899
    }
  },
  {
    "shopName": "TOULOUSE BIKES",
    "priority": 0,
    "website": "toulousebikes.com",
    "address": "164 Route de Revel",
    "suburb": "Toulouse",
    "city": "",
    "zone": "31400",
    "country": "France",
    "_geoloc": {
      "lat": 43.6001824,
      "lng": 1.4319694
    }
  },
  {
    "shopName": "CYCLES ANDOUARD",
    "priority": 0,
    "website": "cyclesandouard.com",
    "address": "45 Avenue Jean Jaurès",
    "suburb": "Saint-Juéry",
    "city": "",
    "zone": "81160",
    "country": "France",
    "_geoloc": {
      "lat": 43.9475868,
      "lng": 2.205093
    }
  },
  {
    "shopName": "CYCLES GOUVENOU",
    "priority": 0,
    "website": "cyclesandouard.com",
    "address": "Route de Domfront",
    "suburb": "Flers",
    "city": "",
    "zone": "61100",
    "country": "France",
    "_geoloc": {
      "lat": 48.736516,
      "lng": -0.5767145
    }
  },
  {
    "shopName": "TRI4FUN",
    "priority": 0,
    "website": "tri4fun.fr",
    "address": "RUE GUSTAVE ZEDE - LE MANEBOS",
    "suburb": "Lanester",
    "city": "",
    "zone": "56600",
    "country": "France",
    "_geoloc": {
      "lat": 47.7752566,
      "lng": -3.3583717
    }
  },
  {
    "shopName": "CYCLES BERNAUDEAU",
    "priority": 0,
    "website": "bernaudeaucycles.fr",
    "address": "70 Rue du Clair Bocage",
    "suburb": "Mouilleron-le-Captif",
    "city": "",
    "zone": "85000",
    "country": "France",
    "_geoloc": {
      "lat": 46.7069607,
      "lng": -1.4326087
    }
  },
  {
    "shopName": "VELODROM",
    "priority": 0,
    "website": "velodromstudio.com",
    "address": "Carrer d'Homer, 22",
    "suburb": "",
    "city": "Barcelona",
    "zone": "08023",
    "country": "Spain",
    "_geoloc": {
      "lat": 41.4223211,
      "lng": 2.1304909
    }
  },
  {
    "shopName": "MATOVELO",
    "priority": 0,
    "website": "matovelo.com",
    "address": "Calle de Juan Agapito y Revilla, 4",
    "suburb": "Valladolid",
    "city": "",
    "zone": "47004",
    "country": "Spain",
    "_geoloc": {
      "lat": 41.6478738,
      "lng": -4.7235421
    }
  },
  {
    "shopName": "THE SERVICE COURSE",
    "priority": 0,
    "website": "theservicecoursegirona.com",
    "address": "Carrer Nord, 10",
    "suburb": "",
    "city": "Girona",
    "zone": "17001",
    "country": "Spain",
    "_geoloc": {
      "lat": 41.985059,
      "lng": 2.820556
    }
  },
  {
    "shopName": "KARACOL",
    "priority": 0,
    "website": "karacol.es",
    "address": "Av. de Madrid, 22B",
    "suburb": "Alcalá de Henares",
    "city": "Madrid",
    "zone": "28803",
    "country": "Spain",
    "_geoloc": {
      "lat": 40.4404198,
      "lng": -3.6154781
    }
  },
  {
    "shopName": "RAD SALON",
    "priority": 0,
    "website": "rad-salon.com",
    "address": "Av. de s'Albufera, 25",
    "suburb": "Playa de Muro",
    "city": "Illes Balears",
    "zone": "07458",
    "country": "Spain",
    "_geoloc": {
      "lat": 39.8062679,
      "lng": 3.1145942
    }
  },
  {
    "shopName": "NAPA",
    "priority": 0,
    "website": "napa.cc",
    "address": "Calle Castillejos Nº 43 Local",
    "suburb": "Las Palmas de Gran Canaria",
    "city": "Las Palmas",
    "zone": "35010",
    "country": "Spain",
    "_geoloc": {
      "lat": 28.1291778,
      "lng": -15.445731
    }
  },
  {
    "shopName": "RIDE MY BIKE",
    "priority": 0,
    "website": "ridemybike.pt",
    "address": "Av. da Força Aérea Portuguesa 17",
    "suburb": "Aveiro",
    "city": "",
    "zone": "3800-356",
    "country": "Portugal",
    "_geoloc": {
      "lat": 40.6459229,
      "lng": -8.6452357
    }
  },
  {
    "shopName": "BIKEDRESS STORE",
    "priority": 0,
    "website": "bikedress.de",
    "address": "Ohlmüllerstraße 7,  ",
    "suburb": "München",
    "city": "",
    "zone": "81541",
    "country": "Germany",
    "_geoloc": {
      "lat": 48.1260719,
      "lng": 11.5767695
    }
  },
  {
    "shopName": "VELETAGE",
    "priority": 0,
    "website": "veletage.com",
    "address": "Praterstraße 13",
    "suburb": "",
    "city": "Wien",
    "zone": "1020",
    "country": "Austria",
    "_geoloc": {
      "lat": 48.2133098,
      "lng": 16.3792969
    }
  },
  {
    "shopName": "GRAN TURISMO CONCEPT STORE",
    "priority": 0,
    "website": "gt2.at",
    "address": "Imbergstraße 9 ",
    "suburb": "5020",
    "city": "Salzburg",
    "zone": "",
    "country": "Austria",
    "_geoloc": {
      "lat": 47.8008633,
      "lng": 13.0452642
    }
  },
  {
    "shopName": "MANTEL SUPERSTORE",
    "priority": 0,
    "website": "mantel.com/fietsenwinkel-den-bosc",
    "address": "Balkweg 7 ",
    "suburb": "'s-Hertogenbosch",
    "city": "",
    "zone": "5232 BT",
    "country": "Netherlands",
    "_geoloc": {
      "lat": 51.7096617,
      "lng": 5.3313931
    }
  },
  {
    "shopName": "MANTEL SUPERSTORE",
    "priority": 0,
    "website": "mantel.com/fietsenwinkel-arnhe",
    "address": "De Overmaat 72",
    "suburb": "Arnhem",
    "city": "",
    "zone": "6831 AJ",
    "country": "Netherlands",
    "_geoloc": {
      "lat": 51.9710011,
      "lng": 5.8793903
    }
  },
  {
    "shopName": "PIET DE WIT",
    "priority": 0,
    "website": "pietdewit.nl/index.ht",
    "address": "Dorpsstraat 27",
    "suburb": "Wormer",
    "city": "",
    "zone": "1531 HA ",
    "country": "Netherlands",
    "_geoloc": {
      "lat": 52.4981728,
      "lng": 4.8086848
    }
  },
  {
    "shopName": "JOHN KNOOPS",
    "priority": 0,
    "website": "johnknoops.nl",
    "address": "Dorpsstraat 92",
    "suburb": "Mierlo",
    "city": "",
    "zone": "5731 JK",
    "country": "Netherlands",
    "_geoloc": {
      "lat": 51.44308,
      "lng": 5.6101595
    }
  },
  {
    "shopName": "ROLFES SPORTS",
    "priority": 0,
    "website": "rolfessports.com",
    "address": "Marktstraat 84-85",
    "suburb": "Musselkanaal",
    "city": "",
    "zone": "9581 AD",
    "country": "Netherlands",
    "_geoloc": {
      "lat": 52.9288134,
      "lng": 7.0133442
    }
  },
  {
    "shopName": "ABOVE CATEGORY",
    "priority": 0,
    "website": "abovecategorycycling.com",
    "address": "42 Caledonia St",
    "suburb": "Sausalito",
    "city": "",
    "zone": "CA 94965",
    "country": "USA",
    "_geoloc": {
      "lat": 37.8586472,
      "lng": -122.4870887
    }
  },
  {
    "shopName": "STRICTLY BICYCLES",
    "priority": 0,
    "website": "strictlybicycles.com",
    "address": "2347 Hudson Terrace",
    "suburb": "Fort Lee",
    "city": "",
    "zone": "NJ 07024",
    "country": "USA",
    "_geoloc": {
      "lat": 40.8612094,
      "lng": -73.9616199
    }
  },
  {
    "shopName": "BICYCLES PLUS",
    "priority": 0,
    "website": "bicyclesplustx.com",
    "address": "5636, 7015 Snider Plaza",
    "suburb": "Dallas",
    "city": "Texas",
    "zone": "75205",
    "country": "USA",
    "_geoloc": {
      "lat": 32.8505735,
      "lng": -96.7904607
    }
  },
  {
    "shopName": "METIER",
    "priority": 0,
    "website": "metierseattle.com",
    "address": "1017 E Union St",
    "suburb": "Seattle",
    "city": "",
    "zone": "WA 98122",
    "country": "USA",
    "_geoloc": {
      "lat": 47.6127054,
      "lng": -122.3208384
    }
  },
  {
    "shopName": "LA BICICLETTA",
    "priority": 0,
    "website": "labiciclettaproshop.com",
    "address": "233 W Broadway",
    "suburb": "",
    "city": "Vancouver",
    "zone": "BC V5Y 1P5",
    "country": "Canada",
    "_geoloc": {
      "lat": 49.2633309,
      "lng": -123.1125066
    }
  },
  {
    "shopName": "THE 11 INC.",
    "priority": 0,
    "website": "the11inc.com",
    "address": "26 Karl Fraser Rd",
    "suburb": "",
    "city": "Toronto",
    "zone": "ON M3C 0E8",
    "country": "Canada",
    "_geoloc": {
      "lat": 43.7357349,
      "lng": -79.3470337
    }
  },
  {
    "shopName": "CYCLE TECHNIQUE",
    "priority": 0,
    "website": "cycletechnique.com",
    "address": "788 Atwater Ave",
    "suburb": "",
    "city": "Montreal",
    "zone": "QC H4C 2G9",
    "country": "Canada",
    "_geoloc": {
      "lat": 45.484881,
      "lng": -73.582639
    }
  },
  {
    "shopName": "PEDALHEAD ROAD WORKS",
    "priority": 0,
    "website": "pedalheadroadworks.com",
    "address": "9635 82 Ave NW",
    "suburb": "",
    "city": "Edmonton",
    "zone": "AB T6C 0Z9",
    "country": "Canada",
    "_geoloc": {
      "lat": 53.5178961,
      "lng": -113.4806179
    }
  },
  {
    "shopName": "CYCLE GERVAIS RIOUX",
    "priority": 0,
    "website": "cyclesgervaisrioux.com",
    "address": "5365 St Laurent Blvd",
    "suburb": "",
    "city": "Montreal",
    "zone": "QC H2T 1S5",
    "country": "Canada",
    "_geoloc": {
      "lat": 45.5250018,
      "lng": -73.5988131
    }
  },
  {
    "shopName": "EURO BIKE CULTURA CICLISTA",
    "priority": 0,
    "website": "eurobikes.com.gt",
    "address": "Diagonal 6",
    "suburb": "",
    "city": "",
    "zone": "",
    "country": "Guatemala",
    "_geoloc": {
      "lat": 14.5969689,
      "lng": -90.5096915
    }
  },
  {
    "shopName": "CYCLO COFFEE & APPAREL",
    "priority": 0,
    "website": "cyclocoffee.com",
    "address": "Blok, Jl. Tulodong Bawah Blok D No.1, RT.8/RW.4, Senayan, Kebayoran Baru, South",
    "suburb": "Jakarta City",
    "city": "Jakarta",
    "zone": "12190",
    "country": "Indonesia",
    "_geoloc": {
      "lat": -6.230036,
      "lng": 106.811924
    }
  },
  {
    "shopName": "HAI TAI BIKE",
    "address": "Shop 13-15, Block 5 Wu Shan Wen Zin Garden, Dau Shan Road, Koo Lau Chui",
    "suburb": "",
    "city": "Fu Zhou",
    "zone": "",
    "country": "China"
  },
  {
    "shopName": "SILVER LIGHT BIKE",
    "address": "Shop 5, Shan Lian Bu Loong Shen, Bu Gi Town, Loong Khan Chui",
    "suburb": "",
    "city": "Shen Zhen",
    "zone": "",
    "country": "China"
  },
  {
    "shopName": "ARTBIKE",
    "priority": 0,
    "website": "puntorosso.wilier.it/en/art-bike/hom",
    "address": "Pudong, Lanhua Rd, 263",
    "suburb": "",
    "city": "Shanghai",
    "zone": "",
    "country": "China"
  }
]